City,Country,Latitude,Longitude,Temperature (F),Humidity (%),Wind Speed (mph),Cloudiness (%),Date
Katsuura,JP,35.13,140.3,57.99,71,3.0,4,1587236976
Punta Arenas,CL,-53.15,-70.92,55.4,43,17.22,57,1587236976
Albany,US,42.6,-73.97,44.01,66,1.99,98,1587236865
Ancud,CL,-41.87,-73.82,60.8,82,14.99,75,1587236976
Port Elizabeth,ZA,-33.92,25.57,68.0,94,9.17,3,1587236977
Mataura,NZ,-46.19,168.86,42.01,92,4.0,100,1587236977
Port Alfred,ZA,-33.59,26.89,66.0,95,4.0,0,1587236977
Estelle,US,29.85,-90.11,77.0,88,5.82,90,1587236974
Nikolskoye,RU,59.7,30.79,37.4,94,13.42,75,1587236977
Muscle Shoals,US,34.74,-87.67,59.0,54,3.36,1,1587236960
Sioux Lookout,CA,50.1,-91.92,37.4,74,14.99,90,1587236775
Karasburg,NA,-28.02,18.75,75.07,13,13.67,0,1587236978
Yellowknife,CA,62.46,-114.35,23.0,79,9.17,75,1587236819
Puerto Ayora,EC,-0.74,-90.35,86.0,70,9.17,75,1587236978
Breyten,ZA,-26.3,29.99,54.36,56,6.17,10,1587236978
Cody,US,44.53,-109.06,55.4,19,13.87,1,1587236730
Vaini,TO,-21.2,-175.2,77.0,83,8.05,20,1587236823
Atuona,PF,-9.8,-139.03,82.26,79,14.2,63,1587236815
Udimskiy,RU,61.14,45.91,31.55,91,3.29,100,1587236979
Orapa,BW,-21.28,25.37,78.48,23,12.35,15,1587236979
Rikitea,PF,-23.12,-134.97,76.78,70,4.68,1,1587236979
Hobart,AU,-42.88,147.33,44.01,87,5.59,72,1587236741
Bethel,US,41.37,-73.41,42.01,80,9.17,90,1587236980
Saint-Philippe,RE,-21.36,55.77,77.0,78,10.29,20,1587236980
Asău,RO,46.43,26.4,50.0,53,8.05,52,1587236980
Mar del Plata,AR,-38.0,-57.56,75.2,50,18.34,0,1587236980
Katima Mulilo,NA,-17.5,24.27,71.6,73,1.12,99,1587236981
Tasiilaq,GL,65.61,-37.64,32.0,91,17.22,90,1587236981
Avarua,CK,-21.21,-159.78,78.8,78,5.82,13,1587236981
Kaitangata,NZ,-46.28,169.85,48.0,89,7.87,100,1587236850
Lebu,CL,-37.62,-73.65,64.29,68,6.55,91,1587236981
Svarstad,NO,59.4,9.97,48.0,62,2.71,0,1587236981
Bowen,AU,-20.02,148.23,73.0,94,3.36,39,1587236982
Qaanaaq,GL,77.48,-69.36,19.42,82,11.03,26,1587236982
New Norfolk,AU,-42.78,147.06,43.0,85,1.01,70,1587236982
Kozhva,RU,65.11,57.05,33.06,91,0.47,80,1587236982
Carnarvon,AU,-24.87,113.63,75.2,88,14.99,75,1587236982
Khovd,MN,48.01,91.64,36.3,38,2.1,53,1587236983
Norman Wells,CA,65.28,-126.83,37.4,93,11.41,90,1587236983
Barrow,US,71.29,-156.79,-7.6,91,9.17,1,1587236701
Hermanus,ZA,-34.42,19.23,71.01,42,2.06,6,1587236983
East London,ZA,-33.02,27.91,71.94,64,17.94,0,1587236822
Ribeira Grande,PT,38.52,-28.7,64.4,88,10.29,75,1587236984
Thinadhoo,MV,0.53,72.93,84.45,73,12.55,100,1587236984
Touros,BR,-5.2,-35.46,87.8,62,11.41,40,1587236984
Tafresh,IR,34.69,50.01,50.76,39,3.15,100,1587236984
Yuli,NG,9.7,10.27,95.67,14,3.27,58,1587236984
Sinnamary,GF,5.38,-52.95,82.44,78,10.33,93,1587236985
Ushuaia,AR,-54.8,-68.3,51.8,37,12.75,75,1587236985
Hamilton,US,39.18,-84.53,55.0,46,8.05,75,1587236985
Bengkulu,ID,-3.8,102.27,77.99,83,3.4,100,1587236694
Puerto del Rosario,ES,28.5,-13.86,68.0,72,9.17,20,1587236985
Malakal,SS,9.53,31.66,91.92,9,2.8,60,1587236986
Meulaboh,ID,4.14,96.13,79.48,82,3.87,89,1587236986
Lagoa,PT,39.05,-27.98,63.09,85,25.57,93,1587236986
Tombouctou,ML,20.0,-3.0,101.75,8,7.67,61,1587236986
Lompoc,US,34.64,-120.46,60.8,63,6.93,90,1587236967
Oltu,TR,40.55,42.0,55.36,33,2.64,85,1587236987
Soubre,CI,5.79,-6.61,79.92,83,5.08,74,1587236987
Half Moon Bay,US,37.46,-122.43,61.0,71,9.17,90,1587236987
Sitka,US,57.05,-135.33,41.0,93,4.7,40,1587236987
Sillod,IN,20.3,75.65,89.6,33,1.12,40,1587236987
Shimoda,JP,34.67,138.95,52.0,82,3.0,8,1587236988
Faanui,PF,-16.48,-151.75,82.76,70,8.72,60,1587236697
Amahai,ID,-3.33,128.92,80.53,79,2.66,77,1587236988
Jamestown,US,42.1,-79.24,43.0,55,12.75,75,1587236988
Dikson,RU,73.51,80.55,35.91,91,18.05,100,1587236988
Soe,ID,-9.86,124.28,64.4,77,2.46,21,1587236989
Castro,BR,-24.79,-50.01,71.24,38,4.59,36,1587236989
Kruisfontein,ZA,-34.0,24.73,66.58,52,8.77,0,1587236989
Thompson,CA,55.74,-97.86,12.2,56,13.87,75,1587236755
Butaritari,KI,3.07,172.79,82.04,78,14.43,98,1587236990
Nemuro,JP,43.32,145.57,40.48,83,9.6,97,1587236990
Kalga,RU,50.93,118.9,28.42,75,14.12,99,1587236990
Agartala,IN,23.84,91.28,71.76,78,9.08,100,1587236712
Mahébourg,MU,-20.41,57.7,79.0,74,16.11,40,1587236704
Samarai,PG,-10.62,150.67,79.48,81,1.14,47,1587236991
Artyom,AZ,40.47,50.33,48.2,93,11.41,75,1587236991
Padang,ID,-0.95,100.35,78.89,77,0.98,100,1587236701
Daru,PG,-9.08,143.21,79.18,87,8.1,73,1587236715
Talnakh,RU,69.49,88.4,37.4,74,33.55,100,1587236992
Hilo,US,19.73,-155.09,75.99,64,5.66,1,1587236812
Saint Paul Harbor,US,57.79,-152.41,44.6,81,4.7,40,1587236992
George Town,MY,5.41,100.34,82.4,88,4.7,40,1587236822
Tiksi,RU,71.69,128.87,5.04,87,4.7,92,1587236992
Kahului,US,20.89,-156.47,75.2,60,3.36,20,1587236993
Sibu,MY,2.3,111.82,77.0,94,2.24,75,1587236993
Pisco,PE,-13.7,-76.22,75.99,64,10.29,3,1587236993
Zalţan,LY,32.95,11.87,71.13,51,17.47,45,1587236993
Santa Ana Arriba,DO,19.3,-70.35,89.6,49,13.87,40,1587236993
Ust'-Omchug,RU,61.15,149.63,-8.07,80,9.22,100,1587236994
Sanguéya,GN,10.7,-14.37,91.72,30,9.35,85,1587236994
Mirny,RU,62.54,113.96,10.4,55,13.42,98,1587236994
Margate,GB,51.38,1.39,48.99,89,15.61,20,1587236706
Labuhan,ID,-6.88,112.21,79.86,82,1.1,70,1587236995
Nizhneivkino,RU,58.19,49.52,33.48,85,5.5,82,1587236995
Kaeo,NZ,-35.1,173.78,59.0,95,3.0,61,1587236995
San Jose,US,37.34,-121.89,63.0,46,1.01,91,1587236722
Hong Kong,HK,22.29,114.16,75.0,88,8.01,96,1587236847
Gamba,GA,-2.65,10.0,80.06,81,8.05,76,1587236995
Caravelas,BR,-17.71,-39.25,77.49,78,21.54,98,1587236996
Bredasdorp,ZA,-34.53,20.04,57.2,87,4.7,0,1587236996
Marystown,CA,47.17,-55.15,35.01,80,12.08,63,1587236996
Kapaa,US,22.08,-159.32,77.0,73,12.75,20,1587236740
Itarema,BR,-2.92,-39.92,84.38,72,7.09,30,1587236996
Arrondissement de Cognac,FR,45.5,-0.25,62.6,77,4.7,80,1587236997
Olafsvik,IS,64.89,-23.71,34.79,90,5.95,100,1587236997
Anadyr,RU,64.75,177.48,15.8,85,17.9,90,1587236997
Longyearbyen,SJ,78.22,15.64,32.0,95,6.93,40,1587236997
Amudat,UG,1.95,34.95,68.25,62,6.55,100,1587236998
Arraial do Cabo,BR,-22.97,-42.03,77.0,73,10.29,40,1587236821
Airai,TL,-8.93,125.41,60.13,56,2.48,63,1587236826
Clyde River,CA,70.47,-68.59,15.8,85,4.7,75,1587236998
Iwanai,JP,42.97,140.51,44.55,83,4.72,100,1587236999
Hithadhoo,MV,-0.6,73.08,84.16,74,12.82,99,1587236823
San Patricio,MX,19.22,-104.7,82.4,78,11.41,20,1587236999
Abnūb,EG,27.27,31.15,73.4,43,17.22,0,1587236999
Örnsköldsvik,SE,63.29,18.72,46.4,45,8.05,0,1587237000
Grindavik,IS,63.84,-22.43,37.4,93,12.75,90,1587237000
Ponta do Sol,PT,32.67,-17.1,63.0,58,1.01,6,1587237000
Bluff,NZ,-46.6,168.33,42.01,92,4.0,100,1587237000
Kukës,AL,42.08,20.42,61.81,50,3.8,29,1587237001
Scottsbluff,US,41.87,-103.67,60.8,21,10.29,1,1587236889
Vardø,NO,70.37,31.11,34.75,90,18.77,100,1587237001
Jasper,US,37.2,-94.35,61.0,35,5.82,1,1587237001
Alhaurín de la Torre,ES,36.66,-4.56,64.4,82,6.93,20,1587237001
Poum,NC,-20.23,164.02,78.17,77,14.76,81,1587236704
Torbay,CA,47.67,-52.73,41.0,51,12.75,75,1587237002
Tuktoyaktuk,CA,69.45,-133.04,6.8,77,6.93,40,1587236840
Puerto Plata,DO,19.79,-70.69,89.6,70,20.8,20,1587237002
Paita,PE,-5.09,-81.11,87.8,48,11.41,54,1587237002
Gandorhun,SL,7.5,-11.83,84.65,67,7.99,93,1587237003
Podporozh'ye,RU,60.91,34.17,33.39,95,1.83,100,1587237003
Itabirito,BR,-20.25,-43.8,78.8,57,8.05,40,1587237003
Paamiut,GL,61.99,-49.67,29.59,91,22.75,100,1587236712
Ahipara,NZ,-35.17,173.17,63.79,84,10.96,65,1587237003
Teya,RU,60.38,92.63,28.33,94,3.18,80,1587236825
Fortuna,US,40.6,-124.16,57.0,87,3.36,90,1587237004
Coaraci,BR,-14.64,-39.55,84.2,74,12.75,40,1587237004
Pevek,RU,69.7,170.31,-4.92,89,7.09,0,1587237004
Gigmoto,PH,13.78,124.39,82.08,77,12.71,57,1587237004
Bognor Regis,GB,50.78,-0.68,55.99,86,7.27,59,1587237005
Chokurdakh,RU,70.63,147.92,-12.08,86,7.52,56,1587237005
Hasaki,JP,35.73,140.83,51.01,87,3.36,75,1587237005
Srandakan,ID,-7.94,110.25,78.8,81,5.79,98,1587237005
Bambanglipuro,ID,-7.95,110.28,78.64,81,5.41,98,1587237006
Matagami,CA,49.75,-77.63,41.0,38,21.92,40,1587236709
Aripuanã,BR,-9.17,-60.63,77.99,80,4.38,100,1587237006
Narsaq,GL,60.92,-46.05,32.0,86,3.36,75,1587237006
Alofi,NU,-19.06,-169.92,77.0,88,6.93,37,1587237007
Birao,CF,10.28,22.79,86.81,10,3.31,60,1587237007
Peñarroya-Pueblonuevo,ES,38.3,-5.27,69.8,60,5.82,86,1587237007
Puerto Madryn,AR,-42.77,-65.04,76.84,44,6.89,100,1587237007
Sandpoint,US,48.28,-116.55,51.8,53,17.22,40,1587236844
Lamar,US,33.67,-95.58,64.0,62,12.75,20,1587237008
Birin,NP,26.89,88.07,58.8,51,2.3,18,1587237008
Nānākuli,US,21.39,-158.15,71.01,77,6.62,40,1587237008
Iwata,JP,34.7,137.85,57.0,76,14.0,43,1587237008
Itambacuri,BR,-18.03,-41.69,74.3,73,6.11,99,1587237008
Cheyenne,US,41.14,-104.82,48.99,39,13.87,1,1587236908
Bani Walid,LY,31.76,13.99,75.65,27,14.18,72,1587237009
Souillac,MU,-20.52,57.52,79.0,74,16.11,40,1587237009
Maridi,SS,4.92,29.47,69.35,73,6.11,100,1587237009
Port Hardy,CA,50.7,-127.42,48.2,87,8.05,90,1587237010
Ambilobe,MG,-13.2,49.05,75.83,77,6.6,99,1587237010
Viedma,AR,-40.81,-63.0,83.86,28,21.63,94,1587237010
Cockburn Town,TC,21.46,-71.14,79.07,77,14.56,2,1587236841
Portland,US,45.52,-122.68,52.0,76,8.05,90,1587236692
Witu,KE,-2.39,40.44,80.31,83,10.16,100,1587237011
Busselton,AU,-33.65,115.33,62.01,69,22.86,100,1587236815
Matara,LK,5.95,80.54,80.37,83,4.43,54,1587236897
Staryy Nadym,RU,65.61,72.68,36.16,98,12.21,100,1587237011
Bambous Virieux,MU,-20.34,57.76,79.0,74,16.11,40,1587237011
Caceres,ES,39.52,-6.37,64.99,60,1.01,100,1587237012
Husavik,IS,66.04,-17.34,46.4,75,44.96,90,1587237012
Edd,ER,13.93,41.69,92.32,48,17.38,86,1587237012
Ambatofinandrahana,MG,-20.55,46.8,59.07,61,6.15,11,1587236828
Lüshunkou,CN,38.8,121.27,53.6,66,2.24,100,1587237013
Saldanha,ZA,-33.01,17.94,71.6,30,6.93,21,1587237013
Salalah,OM,17.02,54.09,82.4,74,5.82,40,1587237013
Vila Franca do Campo,PT,37.72,-25.43,62.6,88,13.87,40,1587237013
Khatanga,RU,71.97,102.5,10.49,93,4.81,0,1587237013
San Isidro,PE,-12.12,-77.05,77.0,65,5.82,25,1587237014
Dudinka,RU,69.41,86.18,37.4,74,33.55,100,1587237014
Golden Gate,US,26.19,-81.7,91.0,79,9.17,40,1587237014
Upernavik,GL,72.79,-56.15,25.68,89,29.04,100,1587237015
Erciş,TR,39.03,43.36,50.0,61,5.82,20,1587237015
Le Vauclin,MQ,14.55,-60.84,86.0,62,18.34,75,1587237015
Wilmington,US,34.23,-77.94,66.63,74,12.48,84,1587237016
La Libertad,EC,-2.23,-80.9,77.0,83,5.82,90,1587237016
Rawson,AR,-43.3,-65.1,67.28,63,14.81,100,1587237016
San Cristobal,VE,7.77,-72.22,84.2,51,14.99,40,1587237016
San Francisco,US,37.77,-122.42,61.0,54,9.17,75,1587236601
Fuzhou,CN,26.06,119.31,64.4,93,2.24,90,1587236901
Lewistown,US,40.6,-77.57,48.99,52,10.29,40,1587237017
Lavrentiya,RU,65.58,-171.0,17.69,96,13.2,100,1587237017
Acarí,PE,-15.43,-74.62,80.87,45,8.63,34,1587237017
Chapada dos Guimarães,BR,-15.46,-55.75,87.8,48,3.36,100,1587237018
Halifax,CA,44.65,-63.57,43.0,60,4.0,95,1587237018
Mount Isa,AU,-20.73,139.5,71.6,30,13.87,11,1587237018
Egvekinot,RU,66.32,-179.17,6.01,89,22.41,100,1587237018
Samoded,RU,63.61,40.51,33.46,93,3.29,88,1587237019
Port-Gentil,GA,-0.72,8.78,84.2,83,8.05,40,1587237019
Pierre,US,44.37,-100.35,64.4,34,18.34,1,1587237019
Oga,IT,46.46,10.35,59.0,50,4.7,41,1587237019
Krasnogorskoye,RU,52.3,86.2,42.33,75,2.73,0,1587237020
Atar,MR,20.52,-13.05,86.22,13,15.46,0,1587237020
Forsytheganj,BY,52.63,29.73,39.07,69,6.24,70,1587237020
Tingi,TZ,-11.3,35.03,64.47,63,7.49,99,1587237020
Codrington,AU,-38.27,141.97,51.66,84,7.92,47,1587237020
Carndonagh,IE,55.25,-7.27,49.23,71,12.5,19,1587237021
Fasa,IR,28.94,53.65,53.6,87,2.89,90,1587237021
Tuxpan,MX,19.55,-103.4,86.0,40,6.11,20,1587237021
Adiaké,CI,5.29,-3.3,84.2,83,11.41,20,1587236958
Vrangel',RU,42.73,133.08,40.78,69,3.09,24,1587237021
Walvis Bay,NA,-22.96,14.51,57.2,87,8.05,10,1587237022
Tomatlán,MX,19.93,-105.25,90.52,35,10.4,51,1587237022
Leningradskiy,RU,69.38,178.42,-3.64,89,7.58,51,1587237022
Kutum,SD,14.2,24.67,77.4,11,9.66,62,1587237022
Ilulissat,GL,69.22,-51.1,24.8,79,3.36,75,1587237022
Mokhsogollokh,RU,61.47,128.92,4.8,92,3.51,50,1587237023
São Miguel do Araguaia,BR,-13.28,-50.16,77.85,79,2.64,100,1587237023
Kavaratti,IN,10.57,72.64,84.74,70,6.35,1,1587237023
Huarmey,PE,-10.07,-78.15,80.83,57,9.53,22,1587237023
Kupang,ID,-10.17,123.58,79.68,80,10.07,32,1587237023
Alice Town,BS,25.72,-79.3,80.85,77,12.68,17,1587237023
Kyshtovka,RU,56.55,76.63,50.95,72,15.37,86,1587237024
Riverton,US,40.52,-111.94,57.2,50,3.36,1,1587236979
El Estor,GT,15.53,-89.35,97.72,33,2.01,10,1587237024
Saint George,US,37.1,-113.58,68.0,34,7.27,1,1587237024
Darnah,LY,32.77,22.64,60.66,72,13.71,0,1587237024
Port Lincoln,AU,-34.73,135.87,58.5,74,5.14,51,1587237025
Bay Roberts,CA,47.6,-53.26,41.0,49,8.01,46,1587237025
Vestmannaeyjar,IS,63.44,-20.27,44.6,100,12.75,90,1587237025
Larsnes,NO,62.2,5.58,43.0,78,1.01,0,1587237025
Fenoarivo,MG,-18.93,47.44,62.6,88,5.82,40,1587237026
Coyhaique,CL,-45.58,-72.07,51.8,76,4.7,90,1587237026
Camacha,PT,33.08,-16.33,66.2,68,14.99,40,1587237026
Morón,AR,-34.65,-58.62,78.01,49,9.04,0,1587237026
Verāval,IN,20.9,70.37,81.95,60,11.36,0,1587237027
Chui,UY,-33.7,-53.46,70.14,70,6.78,32,1587237027
Arrondissement de Bastia,FR,42.67,9.33,60.8,93,5.82,90,1587237027
Naze,JP,28.37,129.48,64.4,82,4.7,90,1587237027
Nadvoitsy,RU,63.87,34.32,32.56,94,9.71,98,1587237028
Lorengau,PG,-2.02,147.27,82.51,72,1.45,64,1587237028
Kirchlinteln,DE,52.95,9.32,57.99,41,4.0,19,1587237028
Pahrump,US,36.21,-115.98,64.0,46,4.0,98,1587237028
Cabo San Lucas,MX,22.89,-109.91,79.0,64,19.46,5,1587236891
Zhaodong,CN,46.08,125.98,55.0,65,8.95,40,1587237029
Okha,RU,53.57,142.95,17.4,90,6.82,18,1587237029
Madingou,CG,-4.15,13.55,76.14,86,3.31,91,1587237029
Bandundu Province,CD,-3.32,17.37,75.51,81,5.57,99,1587237029
Sobolevo,RU,54.43,31.9,37.35,75,6.29,99,1587237030
Mahanoro,MG,-19.9,48.8,76.71,81,8.46,28,1587237030
Bonthe,SL,7.53,-12.51,82.18,71,10.83,100,1587237030
Abhā,SA,18.22,42.51,64.4,82,4.7,20,1587237030
Tibacuy,CO,4.35,-72.46,79.57,70,13.4,73,1587237031
Nanortalik,GL,60.14,-45.24,30.18,88,3.69,27,1587237031
Puqi,CN,29.72,113.88,58.03,93,6.53,100,1587237031
Mehamn,NO,71.04,27.85,35.33,85,13.09,99,1587237031
Bosaso,SO,11.28,49.18,84.49,71,8.08,87,1587237031
Longyan,CN,25.11,117.02,68.2,80,2.48,100,1587237032
Laguna,US,38.42,-121.42,64.99,59,9.17,90,1587237032
Natchitoches,US,31.77,-93.13,62.6,87,5.84,90,1587237032
Santa Vitória do Palmar,BR,-33.52,-53.37,70.45,70,6.87,34,1587237032
San Juan de Abajo,MX,20.82,-105.18,78.8,65,12.75,75,1587237032
Yuanli,TW,24.44,120.65,75.99,83,2.24,75,1587237033
Shakawe,BW,-18.37,21.85,78.12,36,5.86,83,1587237033
Vila,PT,42.03,-8.16,57.2,82,4.7,40,1587237033
Frolovo,RU,49.77,43.66,42.91,60,7.02,38,1587237033
Tuatapere,NZ,-46.13,167.68,43.0,92,7.0,94,1587237033
Ashtian,IR,34.52,50.0,46.74,41,5.7,100,1587237034
Galle,LK,6.04,80.22,81.86,81,7.31,46,1587237034
Kanigoro,ID,-8.13,112.22,76.44,80,4.92,100,1587237034
Rantoul,US,40.31,-88.16,55.99,37,19.46,1,1587237034
Kilindoni,TZ,-7.91,39.67,83.19,76,19.77,100,1587237035
Sidi Ali,DZ,36.1,0.42,62.65,85,0.87,95,1587237035
Lavumisa,SZ,-27.31,31.89,69.62,78,2.64,55,1587237035
Turukhansk,RU,65.82,87.98,38.32,79,15.23,100,1587237036
Lively,CA,46.43,-81.15,46.99,40,15.01,27,1587237036
Iqaluit,CA,63.75,-68.51,6.8,65,3.36,20,1587237036
Berbera,SO,10.44,45.01,85.41,75,15.35,94,1587237036
Mananjary,MG,-21.22,48.33,75.96,83,9.55,19,1587237036
Kloulklubed,PW,7.04,134.26,80.6,88,9.17,75,1587237037
Sevierville,US,35.87,-83.56,57.99,47,4.7,1,1587237037
Hofn,IS,64.25,-15.21,44.31,86,13.35,99,1587237037
Niimi,JP,34.98,133.47,53.6,81,4.7,75,1587237037
Broken Hill,AU,-31.95,141.43,51.8,62,1.48,43,1587237037
Middelburg,ZA,-25.78,29.46,62.56,34,4.0,42,1587236859
Cape Town,ZA,-33.93,18.42,66.99,52,3.36,5,1587237038
Haines Junction,CA,60.75,-137.51,42.53,50,1.5,1,1587237038
Bahía de Caráquez,EC,-0.6,-80.42,82.4,78,8.05,75,1587237038
Rocha,UY,-34.48,-54.33,72.12,59,7.54,0,1587236837
Calvinia,ZA,-31.47,19.78,71.82,15,5.3,19,1587237039
Vila Velha,BR,-20.33,-40.29,80.01,65,16.11,20,1587237039
Klaksvík,FO,62.23,-6.59,44.6,75,14.99,0,1587237039
Marzuq,YE,14.4,46.47,76.19,46,8.66,11,1587237039
Ures,MX,29.43,-110.4,82.99,19,7.0,0,1587237039
Mossamedes,AO,-15.2,12.15,74.34,70,5.64,69,1587236861
Palmer,US,42.16,-72.33,41.0,86,14.99,90,1587236986
Manokwari,ID,-0.87,134.08,81.23,73,3.11,74,1587236860
Amethī,IN,26.15,81.82,88.16,19,5.03,45,1587236823
Narrabri,AU,-30.32,149.78,46.0,87,5.82,0,1587237040
Yulara,AU,-25.24,130.99,68.0,42,6.93,0,1587237040
Loukhi,RU,66.08,33.04,32.94,92,11.05,97,1587237041
Isangel,VU,-19.55,169.27,75.2,94,10.58,75,1587236853
Tezu,IN,27.92,96.17,71.4,71,2.06,100,1587237041
Lāsalgaon,IN,20.15,74.23,87.58,24,9.4,68,1587237041
Werda,BW,-25.27,23.28,78.76,22,2.77,42,1587237041
Tura,IN,25.52,90.22,68.4,74,9.28,89,1587237042
Songyuan,CN,45.12,124.86,57.49,32,14.56,87,1587237042
Grand-Santi,GF,4.25,-54.38,90.48,56,1.81,75,1587236842
Esperance,AU,-33.87,121.9,59.0,93,13.87,90,1587237042
Bunia,CD,1.57,30.25,63.68,69,0.74,100,1587237042
Saskylakh,RU,71.92,114.08,8.49,81,5.06,0,1587236827
Sirari,TZ,-1.23,34.43,62.64,66,0.47,100,1587237043
Worland,US,44.02,-107.96,53.6,25,3.36,1,1587237043
Garoowe,SO,8.41,48.48,81.55,56,16.53,49,1587237043
Port Hedland,AU,-20.32,118.57,78.8,94,6.93,67,1587237043
Yerbogachën,RU,61.28,108.01,11.3,90,5.73,4,1587237044
College,US,64.86,-147.8,39.2,100,2.98,90,1587237044
Tual,ID,-5.67,132.75,83.93,76,7.76,100,1587237044
San Rafael del Sur,NI,11.85,-86.44,93.2,38,9.17,20,1587237044
Labytnangi,RU,66.66,66.42,32.49,96,5.12,100,1587237045
Henties Bay,NA,-22.12,14.28,57.0,94,1.99,18,1587237045
Zhigansk,RU,66.77,123.37,2.62,93,12.91,30,1587237045
Ambulu,ID,-8.35,113.61,79.02,79,5.23,100,1587237045
Oussouye,SN,12.48,-16.55,89.6,61,16.11,56,1587237045
Cairns,AU,-16.92,145.77,75.2,100,2.28,90,1587237046
Pangnirtung,CA,66.15,-65.71,3.2,77,5.82,40,1587237046
Yangjiang,CN,21.85,111.97,72.91,92,2.51,99,1587237046
Kungurtug,RU,50.6,97.52,29.14,54,2.55,0,1587237046
Kavieng,PG,-2.57,150.8,82.17,76,0.6,99,1587237047
Mango,US,27.98,-82.31,77.0,94,5.82,75,1587237047
Sungai Penuh,ID,-2.08,101.38,66.38,73,1.63,100,1587237047
Progreso,MX,21.28,-89.67,100.99,32,11.41,40,1587237047
Cayenne,GF,4.93,-52.33,86.0,70,9.17,75,1587236901
Charter Township of Clinton,US,42.59,-82.92,54.0,43,20.8,40,1587237003
Provideniya,RU,64.38,-173.3,21.16,95,16.24,100,1587237048
Sandwich,US,41.65,-88.62,53.6,46,20.8,1,1587237048
Ambunti,PG,-4.24,142.84,73.36,96,0.38,91,1587237048
Sawākin,SD,19.11,37.33,77.34,72,8.23,100,1587237048
Wattegama,LK,6.8,81.48,78.8,100,1.12,20,1587237049
Jinchang,CN,38.5,102.17,47.97,30,6.15,0,1587237049
Vinh,VN,18.67,105.67,75.6,84,3.42,34,1587237049
Narón,ES,43.52,-8.15,57.0,85,4.14,43,1587237049
Dunedin,NZ,-45.87,170.5,48.0,72,6.11,95,1587237050
Puertollano,ES,38.69,-4.11,66.99,56,4.43,79,1587237050
Bintulu,MY,3.17,113.03,73.4,100,2.24,75,1587237050
Juan Aldama,MX,24.29,-103.39,81.72,12,21.92,73,1587237050
Plettenberg Bay,ZA,-34.05,23.37,69.55,48,4.38,0,1587237050
Lüderitz,NA,-26.65,15.16,60.8,87,6.93,11,1587237051
Aswān,EG,24.09,32.91,73.24,23,3.38,69,1587237051
Arlit,NE,18.74,7.39,93.45,8,5.55,0,1587236876
Saint Anthony,US,45.02,-93.22,60.8,36,16.11,75,1587236894
Baijiantan,CN,45.63,85.18,62.22,44,5.66,52,1587237051
Jalu,LY,29.03,21.55,73.94,23,8.63,0,1587237051
Severo-Kuril'sk,RU,50.68,156.12,32.68,88,9.04,0,1587237052
Ha Giang,VN,22.83,104.98,74.73,81,0.81,99,1587237052
Otane,NZ,-39.88,176.63,57.0,82,18.01,0,1587237052
Tiznit Province,MA,29.58,-9.5,60.84,59,11.25,24,1587236935
Beringovskiy,RU,63.05,179.32,18.05,96,18.81,100,1587237052
Makakilo City,US,21.35,-158.09,77.0,77,7.16,40,1587237053
Hamamatsu,JP,34.7,137.73,57.0,76,14.0,48,1587236985
Kabare,CD,-2.47,28.82,62.96,61,2.17,100,1587237053
Oistins,BB,13.07,-59.53,86.0,58,19.46,20,1587237053
Kiryat Gat,IL,31.61,34.76,68.0,15,9.62,2,1587237054
Constitución,CL,-35.33,-72.42,68.79,74,9.37,93,1587237054
Pidhaytsi,UA,49.27,25.13,51.8,29,2.24,48,1587237054
Bonavista,CA,48.65,-53.11,37.0,53,8.01,69,1587237054
Oddur,SO,4.12,43.89,83.53,52,13.13,99,1587237054
San Rafael,AR,-34.62,-68.33,83.86,22,16.55,52,1587237055
Aranos,NA,-24.13,19.12,81.18,19,11.61,38,1587237055
Dingle,PH,11.0,122.67,80.22,79,8.52,0,1587237055
Ellisras,ZA,-23.66,27.74,73.92,29,7.34,20,1587237055
Hope,US,33.67,-93.59,63.0,51,8.05,1,1587237055
Hirara,JP,24.8,125.28,73.96,88,17.45,98,1587237055
Ayan,RU,56.45,138.17,12.22,83,13.82,17,1587237056
Umm Bāb,QA,25.21,50.81,78.01,78,6.93,1,1587237056
Buraidah,SA,26.33,43.98,78.8,54,19.46,50,1587237056
Varhaug,NO,58.61,5.65,46.4,70,5.82,0,1587237056
Angoche,MZ,-16.23,39.91,78.8,82,8.16,0,1587237056
Ixtapa,MX,20.7,-105.2,78.8,65,12.75,75,1587237057
Valdosta,US,30.83,-83.28,82.4,58,4.7,40,1587237057
Chiradzulu,MW,-15.67,35.14,62.31,75,4.85,35,1587237057
Ola,RU,59.58,151.28,8.8,92,14.76,100,1587237057
Honningsvåg,NO,70.98,25.97,37.27,79,10.07,95,1587237057
Kuril'sk,RU,45.23,147.88,36.45,79,3.24,23,1587237058
Ves'yegonsk,RU,58.66,37.26,34.54,84,4.16,99,1587237058
Aksarka,RU,66.56,67.8,31.75,98,2.08,100,1587237058
Yinchuan,CN,38.47,106.27,48.0,44,3.0,7,1587237058
Enterprise,US,36.03,-115.24,71.01,32,3.36,40,1587237058
Tshikapa,CD,-6.42,20.8,72.99,81,1.7,97,1587237058
Nishihara,JP,26.18,127.76,71.6,88,6.93,1,1587236837
Mandalgovi,MN,45.76,106.27,34.7,45,27.51,84,1587236873
Kaset Sombun,TH,16.28,101.95,82.54,55,1.81,47,1587237059
Manado,ID,1.49,124.85,77.0,94,1.12,40,1587237059
Sørland,NO,67.67,12.69,40.51,91,7.85,98,1587237060
Mana,GF,5.66,-53.78,83.82,77,8.86,75,1587237060
Batagay,RU,67.63,134.63,-8.77,87,2.1,82,1587237060
Itaituba,BR,-4.28,-55.98,89.6,62,2.24,40,1587237060
Nossa Senhora da Glória,BR,-10.22,-37.42,83.71,62,12.33,78,1587237060
Goderich,CA,43.75,-81.72,51.01,54,10.0,43,1587237061
Xinmin,CN,41.99,122.83,60.01,61,2.24,100,1587237061
Faya,SA,18.39,42.45,64.4,82,4.7,20,1587237061
Valparaíso,CL,-33.04,-71.63,71.6,53,5.82,28,1587236819
Kjøllefjord,NO,70.95,27.35,35.11,85,12.3,100,1587237062
Namatanai,PG,-3.67,152.43,81.41,77,3.33,100,1587237062
Maceió,BR,-9.67,-35.74,82.4,83,13.87,75,1587237062
La Reforma,MX,25.08,-108.05,82.99,52,8.01,86,1587237063
Priiskovyy,RU,51.93,116.63,26.35,87,12.8,86,1587237063
Gornopravdinsk,RU,60.05,69.9,45.99,76,11.23,99,1587237063
Araouane,ML,18.9,-3.53,102.04,8,6.82,47,1587237064
Ratnagiri,IN,16.98,73.3,80.6,82,3.0,25,1587237064
Eureka,US,40.8,-124.16,55.0,75,7.0,99,1587237064
Coihueco,CL,-36.62,-71.83,75.2,64,10.29,75,1587237064
Beloha,MG,-25.17,45.05,73.42,75,12.17,39,1587237064
Utete,TZ,-7.99,38.76,74.62,94,3.47,100,1587237065
Peniche,PT,39.36,-9.38,61.0,80,5.99,26,1587237065
Bacolod City,PH,10.67,122.95,80.06,75,8.23,0,1587236830
Linxia Chengguanzhen,CN,35.6,103.21,48.9,27,1.48,23,1587237065
Bathsheba,BB,13.22,-59.52,86.0,58,19.46,20,1587237066
Ust-Tsilma,RU,65.44,52.15,34.52,94,2.17,100,1587237066
Salinópolis,BR,-0.61,-47.36,82.99,72,3.94,67,1587237066
Maroantsetra,MG,-15.43,49.73,72.82,83,1.19,74,1587236828
Siderno,IT,38.28,16.3,63.0,26,2.84,11,1587237066
Sur,OM,22.57,59.53,79.97,76,2.37,2,1587237067
Boyolangu,ID,-8.12,111.89,77.52,83,4.7,100,1587237067
Tilichiki,RU,60.47,166.1,1.96,90,9.57,12,1587237067
Three Hills,CA,51.7,-113.27,32.7,63,7.56,94,1587237067
Banda Aceh,ID,5.56,95.32,80.04,81,4.54,27,1587237068
Linjiang,CN,41.81,126.91,44.04,66,1.66,51,1587237068
Urdoma,RU,61.75,48.54,34.81,94,1.1,100,1587237068
Bara,NG,10.37,10.73,92.21,9,2.04,65,1587237068
Lashio,MM,22.93,97.75,67.75,43,1.25,2,1587237068
São João da Barra,BR,-21.64,-41.05,78.8,65,13.87,75,1587237069
Havelock,US,34.88,-76.9,66.2,68,18.34,75,1587237069
Taft,IR,31.75,54.21,66.2,45,6.93,75,1587237069
Mahon,ES,39.89,4.27,64.4,88,8.05,20,1587237069
Panabá,MX,21.28,-88.27,96.67,36,8.75,23,1587237069
Bodden Town,KY,19.28,-81.25,87.8,74,4.7,20,1587237070
Solnechnyy,RU,50.72,136.63,29.23,90,4.7,45,1587236832
Arica,CL,-18.48,-70.3,73.4,64,13.87,33,1587237070
Dimovo,BG,43.74,22.73,62.01,50,1.01,51,1587237070
Morant Bay,JM,17.88,-76.41,86.0,66,20.8,20,1587237070
Mandiana,GN,10.63,-8.68,99.93,19,3.13,85,1587237071
Harper,LR,4.38,-7.72,82.0,82,9.82,92,1587237071
Umluj,SA,25.02,37.27,74.44,54,6.91,100,1587237071
Studénka,CZ,49.72,18.08,55.4,48,2.24,45,1587237071
Boa Viagem,BR,-5.13,-39.73,83.21,69,4.03,59,1587237071
Tortolì,IT,39.93,9.66,60.8,93,4.7,40,1587237071
Bukama,CD,-9.2,25.85,73.26,73,1.72,62,1587237072
Tigzirt,DZ,36.89,4.12,65.41,80,10.74,71,1587237072
Ponazyrevo,RU,58.36,46.31,34.2,86,3.85,100,1587237072
São Filipe,CV,14.9,-24.5,71.49,73,23.38,14,1587236844
Lata,PT,40.16,-8.33,62.01,86,1.01,68,1587237072
Cedar Lake,US,41.36,-87.44,55.0,58,20.0,1,1587237073
Kabalo,CD,-6.05,26.92,73.9,77,1.63,99,1587237073
Belmonte,BR,-15.86,-38.88,75.2,88,12.75,90,1587236932
Geraldton,AU,-28.77,114.6,68.0,82,4.7,90,1587237073
Mount Gambier,AU,-37.83,140.77,42.8,100,6.93,90,1587237073
Workington,GB,54.64,-3.54,50.0,69,1.01,69,1587237074
‘Āhuimanu,US,21.44,-157.84,80.6,54,10.29,1,1587237074
Tungor,RU,53.38,142.96,16.27,90,5.44,22,1587237074
Wasilla,US,61.58,-149.44,50.0,81,4.7,90,1587237075
Sambava,MG,-14.27,50.17,75.16,86,7.25,98,1587237075
Alekseyevka,RU,50.63,38.69,40.84,65,6.96,63,1587237075
Kayan,MM,16.91,96.56,82.4,83,5.82,30,1587237076
Omsukchan,RU,62.53,155.8,-0.09,84,6.29,100,1587237076
Dongsheng,CN,39.82,109.98,40.21,52,10.54,94,1587237076
Yumen,CN,40.28,97.2,55.0,22,8.34,66,1587237076
Khāsh,IR,28.22,61.22,68.52,26,1.05,97,1587237077
Paraná,AR,-31.73,-60.52,82.99,35,5.01,0,1587237077
Marau,BR,-28.45,-52.2,73.78,44,5.32,5,1587237077
Fairbanks,US,64.84,-147.72,39.2,100,2.98,90,1587237077
Along,IN,28.17,94.77,66.94,70,1.86,97,1587237078
Karratha,AU,-20.74,116.85,82.6,64,10.76,80,1587237078
Khandyga,RU,62.67,135.6,-4.92,87,2.55,15,1587237078
Mayumba,GA,-3.43,10.66,80.28,84,7.02,27,1587237078
Muyezerskiy,RU,63.93,31.65,31.89,90,13.29,98,1587237079
Auch,FR,43.65,0.58,64.0,28,2.57,100,1587237079
Teguise,ES,29.06,-13.56,68.0,68,13.87,20,1587237079
Praia,CV,14.92,-23.51,78.8,54,20.8,40,1587237079
Bloomington,US,44.84,-93.3,62.6,47,11.41,40,1587236962
Tocopilla,CL,-22.09,-70.2,83.91,29,7.54,19,1587237080
Kaduna,NG,10.52,7.44,91.13,16,3.06,60,1587236849
Pangoa,PE,-12.12,-73.0,83.68,39,4.12,32,1587237080
Sorong,ID,-0.88,131.25,77.13,87,1.19,98,1587237080
Sampit,ID,-2.53,112.95,75.27,97,2.86,75,1587237081
Cobija,BO,-11.03,-68.77,87.8,45,9.17,3,1587237081
Quincy,US,42.25,-71.0,39.2,93,14.99,90,1587237081
Cidreira,BR,-30.18,-50.21,71.73,65,10.78,3,1587237082
Northam,GB,51.03,-4.22,55.0,89,3.0,46,1587237082
Payo,ID,-3.75,103.64,74.84,89,2.24,95,1587237082
Ramona,US,33.04,-116.87,61.0,76,8.05,90,1587237044
Luís Correia,BR,-2.88,-41.67,86.0,74,6.93,40,1587237083
Arona,ES,28.1,-16.68,71.01,52,11.41,20,1587237083
Tadine,NC,-21.55,167.88,74.23,74,8.97,93,1587237083
Cherskiy,RU,68.75,161.3,-4.95,87,6.04,39,1587237084
Omboué,GA,-1.57,9.26,80.49,86,6.67,92,1587237084
Deputatsky,RU,69.3,139.9,-15.95,73,1.83,0,1587236904
Sarkand,KZ,45.41,79.92,49.42,37,5.41,14,1587237084
Tall Kayf,TR,37.08,41.07,64.4,63,5.73,4,1587237084
Maracaju,BR,-21.61,-55.17,81.45,37,3.69,23,1587237085
Atambua,ID,-9.11,124.89,72.86,78,3.89,49,1587237085
Grand Junction,US,39.06,-108.55,62.6,21,6.93,1,1587237085
Parkes,AU,-33.13,148.18,46.99,85,3.47,26,1587237085
Avera,US,33.19,-82.53,77.0,36,12.75,1,1587237085
Eyl,SO,7.98,49.82,83.03,74,11.79,3,1587237086
Linqiong,CN,30.42,103.46,66.2,68,8.95,40,1587237086
Fuyang,CN,32.9,115.82,50.77,95,9.19,100,1587237086
Davila,PH,18.47,120.58,77.0,94,3.36,20,1587236908
Bonao,DO,18.94,-70.41,89.6,49,13.87,40,1587237087
Kedrovyy,RU,56.17,91.82,30.2,74,7.61,13,1587237087
Masvingo,ZW,-20.06,30.83,65.05,64,8.03,6,1587237087
Inírida,CO,3.87,-67.92,82.71,83,3.71,87,1587236949
Ponot,PH,8.45,123.02,81.09,83,16.84,6,1587237087
San,ML,13.3,-4.9,105.33,11,4.74,79,1587236860
Codajás,BR,-3.84,-62.06,86.68,72,1.68,93,1587237088
Vilyuysk,RU,63.76,121.62,-0.98,91,6.26,0,1587237088
Bundoran,IE,54.48,-8.28,51.01,81,5.01,33,1587237088
Yenagoa,NG,4.92,6.26,80.74,85,4.34,86,1587237088
Luba,GQ,3.46,8.55,82.4,94,3.36,20,1587237089
Kosh-Agach,RU,50.0,88.67,30.31,37,3.38,0,1587237089
Baykit,RU,61.67,96.37,20.35,92,2.13,46,1587237089
Vostok,RU,46.49,135.88,34.97,75,3.09,27,1587237089
Ritchie,ZA,-29.04,24.6,66.2,68,12.75,64,1587237089
High Level,CA,58.52,-117.14,50.0,34,8.05,40,1587237089
Luebo,CD,-5.35,21.42,72.72,83,1.74,97,1587237090
Departamento de Maldonado,UY,-34.67,-54.92,77.0,57,9.17,20,1587237090
Comodoro Rivadavia,AR,-45.87,-67.5,75.2,29,20.8,75,1587236920
Collierville,US,35.04,-89.66,61.0,58,9.17,5,1587236885
Coxim,BR,-18.51,-54.76,86.04,52,3.69,88,1587237091
Columbia,US,34.0,-81.03,75.99,47,11.41,20,1587236942
Nioro,GM,13.35,-15.75,94.1,19,14.52,61,1587237091
Praia da Vitória,PT,38.73,-27.07,64.4,88,18.14,75,1587237091
Manutuke,NZ,-38.68,177.92,54.0,78,7.94,3,1587237091
Cedeno,CO,7.05,-72.16,80.51,45,1.45,97,1587237091
Tougue,GN,11.47,-11.6,92.08,17,5.01,49,1587237092
Simao,CN,22.79,100.97,64.24,36,1.97,0,1587237092
Hearst,CA,49.68,-83.67,38.64,84,17.96,100,1587237092
Kirakira,SB,-10.45,161.92,77.43,86,0.74,100,1587236898
Frutal,BR,-20.02,-48.94,81.73,57,4.45,87,1587236975
Warrnambool,AU,-38.38,142.48,48.0,95,8.12,59,1587237093
Urucará,BR,-2.54,-57.76,87.69,67,4.43,50,1587237093
Fort Nelson,CA,58.81,-122.7,48.2,45,8.05,40,1587236937
Talcahuano,CL,-36.72,-73.12,69.8,68,3.36,75,1587237093
Kimbe,PG,-5.55,150.14,76.21,89,2.33,96,1587237094
Orlik,RU,52.52,99.83,25.79,60,5.61,69,1587237094
Kumul,CN,42.8,93.45,65.14,20,17.05,95,1587237049
Pombia,IT,45.65,8.63,68.0,40,2.24,48,1587237094
Shelbyville,US,35.48,-86.46,50.0,75,3.36,40,1587237094
Ajdabiya,LY,30.76,20.23,66.36,50,16.6,0,1587237094
Gemeente Dronten,NL,52.5,5.72,59.0,51,1.01,94,1587237095
Yarmouth,US,41.71,-70.23,43.0,86,12.75,90,1587237095
Benjamin Constant,BR,-4.38,-70.03,87.8,66,5.82,40,1587237095
Borogontsy,RU,62.67,131.17,0.39,88,3.27,25,1587237095
Lakatoro,VU,-16.1,167.42,73.4,94,11.27,40,1587237095
Brownsville,US,25.9,-97.5,89.6,55,16.11,75,1587237096
Mayo,US,38.89,-76.51,54.0,57,17.22,90,1587237096
Ceres,US,37.59,-120.96,62.01,59,3.36,90,1587237096
Naryan-Mar,RU,67.67,53.09,32.95,96,5.1,100,1587237081
Capreol,CA,46.71,-80.92,46.99,36,16.11,75,1587237096
Laas,IT,46.62,10.7,59.0,51,2.24,40,1587237096
Kalmar,SE,56.66,16.36,37.99,64,2.24,3,1587237097
Saint-Leu,RE,-21.15,55.28,77.0,83,11.41,40,1587237097
Port Macquarie,AU,-31.43,152.92,54.0,96,5.86,58,1587237097
Ituiutaba,BR,-18.97,-49.47,78.3,64,3.78,94,1587237097
Boca do Acre,BR,-8.75,-67.4,89.17,34,5.03,26,1587237097
San Antonio,US,29.42,-98.49,62.01,72,8.05,90,1587236872
Pemangkat,ID,1.17,108.97,76.1,89,6.85,79,1587237098
Caucaia,BR,-3.74,-38.65,86.0,62,8.05,40,1587237098
Grants,US,35.15,-107.85,59.0,18,19.46,1,1587237098
